{"xml-tables": {"Train_Stations-table": {"Train_Stations": [{"Name": "Gormanston Station", "Address1": "Station Road", "Address2": "Gormanstown", "Address3": "Co. Meath", "Address4": null, "Phone": "+353 1 8415656", "Email": null, "Website": "http://www.irishrail.ie/your_journey/your_station.asp?letter=G&action=showdetail&station_id=66", "LAT": "53.6381297964511", "LONG": "-6.21741054028616"}, {"Name": "Balbriggan Station", "Address1": "Railway Street", "Address2": "Balbriggan", "Address3": "Do. Dublin", "Address4": null, "Phone": "+353 1 8412803", "Email": null, "Website": "http://www.irishrail.ie/your_journey/your_station.asp?letter=B&action=showdetail&station_id=9", "LAT": "53.6117617856221", "LONG": "-6.18243140468438"}, {"Name": "Skerries Station", "Address1": "Station Road", "Address2": "Skerries", "Address3": "Co. Dublin", "Address4": null, "Phone": "+353 1 8491223", "Email": null, "Website": "http://www.irishrail.ie/your_journey/your_station.asp?letter=S&action=showdetail&station_id=117", "LAT": "53.5739798074153", "LONG": "-6.11901667083355"}, {"Name": "Rush & Lusk Station", "Address1": "Station Road", "Address2": "Lusk", "Address3": "Co. Dublin", "Address4": null, "Phone": "+353 1 8437261", "Email": null, "Website": "http://www.irishrail.ie/your_journey/your_station.asp?letter=R&action=showdetail&station_id=109", "LAT": "53.5208661355597", "LONG": "-6.14319934563359"}, {"Name": "Donabate Station", "Address1": "Turvey Avenue", "Address2": "Donabate", "Address3": "Co. Dublin", "Address4": null, "Phone": "+353 1 8436082", "Email": null, "Website": "http://www.irishrail.ie/your_journey/your_station.asp?letter=D&action=showdetail&station_id=49", "LAT": "53.4857057095375", "LONG": "-6.1513259233287"}, {"Name": "Malahide Station", "Address1": "Dublin Road", "Address2": "Malahide", "Address3": "Co. Dublin", "Address4": null, "Phone": "+353 1 8286960", "Email": null, "Website": "http://www.irishrail.ie/your_journey/your_station.asp?letter=M&action=showdetail&station_id=90", "LAT": "53.4507114547537", "LONG": "-6.15642589308209"}, {"Name": "Portmarnock Station", "Address1": "Station Road", "Address2": "Portmarnock", "Address3": "Co. Dublin", "Address4": null, "Phone": "+353 1 8208100", "Email": null, "Website": "http://www.irishrail.ie/your_journey/your_station.asp?letter=P&action=showdetail&station_id=101", "LAT": "53.4182163702112", "LONG": "-6.15120207439065"}, {"Name": "Clongriffin Station", "Address1": "Railway Road", "Address2": "Clongriffin", "Address3": "Dublin 13", "Address4": null, "Phone": null, "Email": null, "Website": "http://www.irishrail.ie/your_journey/your_station.asp?letter=C&action=showdetail&station_id=138", "LAT": "53.4025171961238", "LONG": "-6.1489773523581"}, {"Name": "Howth Junction & Donaghmede Station", "Address1": "Kilbarrack Way", "Address2": "Kilbarrack Road", "Address3": "Kilbarrack", "Address4": "Dublin 13", "Phone": "+353 1 8286840", "Email": null, "Website": "http://www.irishrail.ie/your_journey/your_station.asp?letter=H&action=showdetail&station_id=73", "LAT": "53.3913718288771", "LONG": "-6.15511108858946"}, {"Name": "Bayside Station", "Address1": "Bayside Park", "Address2": "Bayside", "Address3": "Dublin 13", "Address4": null, "Phone": "+353 1 8286880", "Email": null, "Website": "http://www.irishrail.ie/your_journey/your_station.asp?letter=B&action=showdetail&station_id=15", "LAT": "53.3913767526038", "LONG": "-6.13693846157484"}, {"Name": "Sutton Station", "Address1": "Station Road", "Address2": "Sutton", "Address3": "Dublin 13", "Address4": null, "Phone": "+353 1 8286900", "Email": null, "Website": "http://www.irishrail.ie/your_journey/your_station.asp?letter=S&action=showdetail&station_id=119", "LAT": "53.3919498636313", "LONG": "-6.11601953890995"}, {"Name": "Howth Station", "Address1": "Harbour Road", "Address2": "Howth", "Address3": "Dublin 13", "Address4": null, "Phone": "+353 1 8286920", "Email": null, "Website": "http://www.irishrail.ie/your_journey/your_station.asp?letter=H&action=showdetail&station_id=72", "LAT": "53.3889744217739", "LONG": "-6.07421338657211"}, {"Name": "Ashtown Station", "Address1": "Ashtown Road", "Address2": "Ashtown", "Address3": "Dublin 7", "Address4": null, "Phone": "+353 1 8880043", "Email": null, "Website": "http://www.irishrail.ie/your_journey/your_station.asp?letter=A&action=showdetail&station_id=4", "LAT": "53.3753054743583", "LONG": "-6.33224299449652"}, {"Name": "Phoenix Park Station", "Address1": "Navan Road", "Address2": "Dublin 15", "Address3": null, "Address4": null, "Phone": null, "Email": null, "Website": "http://www.irishrail.ie/your_journey/your_station.asp?letter=P&action=showdetail&station_id=134", "LAT": "53.3775313592212", "LONG": "-6.34551778621161"}, {"Name": "Castleknock Station", "Address1": "Castleknock Road", "Address2": "Castleknock", "Address3": "Dublin 15", "Address4": null, "Phone": "+353 1 8201706", "Email": null, "Website": "http://www.irishrail.ie/your_journey/your_station.asp?letter=C&action=showdetail&station_id=33", "LAT": "53.3815938369952", "LONG": "-6.37147917505063"}, {"Name": "Coolmine Station", "Address1": "Carpenterstown Road", "Address2": "Coolmine", "Address3": "Dublin 15", "Address4": null, "Phone": "+353 1 8201957", "Email": null, "Website": "http://www.irishrail.ie/your_journey/your_station.asp?letter=C&action=showdetail&station_id=46", "LAT": "53.3775164879418", "LONG": "-6.39160014224703"}, {"Name": "Clonsilla Station", "Address1": "Clonsilla Road", "Address2": "Clonsilla", "Address3": "Dublin 15", "Address4": null, "Phone": "+353 1 8211378", "Email": null, "Website": "http://www.irishrail.ie/your_journey/your_station.asp?letter=C&action=showdetail&station_id=40", "LAT": "53.3829895210743", "LONG": "-6.42303682403725"}, {"Name": "Leixlip Confey", "Address1": "Captain's Hill", "Address2": "Leixlip", "Address3": "Co. Kildare", "Address4": null, "Phone": "+353 1 8880055", "Email": null, "Website": "http://www.irishrail.ie/your_journey/your_station.asp?letter=L&action=showdetail&station_id=84", "LAT": "53.374058736533", "LONG": "-6.48544966306995"}, {"Name": "Dunboyne", "Address1": "Station Road", "Address2": "Dunboyne", "Address3": "Co. Meath", "Address4": null, "Phone": null, "Email": null, "Website": null, "LAT": "53.4170725629026", "LONG": "-6.46362765919494"}, {"Name": "M3 Parkway", "Address1": "Pace", "Address2": "Dunboyne", "Address3": "Co. Meath", "Address4": null, "Phone": null, "Email": null, "Website": null, "LAT": "53.4344754989663", "LONG": "-6.46819036770498"}]}}}